{
  "cities": [
    {"name": "Mumbai", "lat": 19.0760, "lon": 72.8777},
    {"name": "Delhi", "lat": 28.7041, "lon": 77.1025},
    {"name": "Bangalore", "lat": 12.9716, "lon": 77.5946},
    {"name": "Hyderabad", "lat": 17.3850, "lon": 78.4867},
    {"name": "Ahmedabad", "lat": 23.0225, "lon": 72.5714},
    {"name": "Chennai", "lat": 13.0827, "lon": 80.2707},
    {"name": "Kolkata", "lat": 22.5726, "lon": 88.3639},
    {"name": "Surat", "lat": 21.1702, "lon": 72.8311},
    {"name": "Pune", "lat": 18.5204, "lon": 73.8567},
    {"name": "Jaipur", "lat": 26.9124, "lon": 75.7873},
    {"name": "Lucknow", "lat": 26.8467, "lon": 80.9462},
    {"name": "Kanpur", "lat": 26.4499, "lon": 80.3319},
    {"name": "Nagpur", "lat": 21.1458, "lon": 79.0882},
    {"name": "Indore", "lat": 22.7196, "lon": 75.8577},
    {"name": "Thane", "lat": 19.2183, "lon": 72.9781},
    {"name": "Bhopal", "lat": 23.2599, "lon": 77.4126},
    {"name": "Visakhapatnam", "lat": 17.6868, "lon": 83.2185},
    {"name": "Pimpri-Chinchwad", "lat": 18.6298, "lon": 73.7997},
    {"name": "Patna", "lat": 25.5941, "lon": 85.1376},
    {"name": "Vadodara", "lat": 22.3072, "lon": 73.1812},
    {"name": "Ghaziabad", "lat": 28.6692, "lon": 77.4538},
    {"name": "Ludhiana", "lat": 30.9010, "lon": 75.8523},
    {"name": "Agra", "lat": 27.1767, "lon": 78.0081},
    {"name": "Nashik", "lat": 19.9975, "lon": 73.7898},
    {"name": "Faridabad", "lat": 28.4089, "lon": 77.3178},
    {"name": "Meerut", "lat": 28.9845, "lon": 77.7064},
    {"name": "Rajkot", "lat": 22.3039, "lon": 70.8022},
    {"name": "Kalyan-Dombivli", "lat": 19.2403, "lon": 73.1305},
    {"name": "Vasai-Virar", "lat": 19.3919, "lon": 72.8397},
    {"name": "Varanasi", "lat": 25.3176, "lon": 82.9739},
    {"name": "Srinagar", "lat": 34.0837, "lon": 74.7973},
    {"name": "Aurangabad", "lat": 19.8762, "lon": 75.3433},
    {"name": "Dhanbad", "lat": 23.7957, "lon": 86.4304},
    {"name": "Amritsar", "lat": 31.6340, "lon": 74.8723},
    {"name": "Navi Mumbai", "lat": 19.0330, "lon": 73.0297},
    {"name": "Allahabad", "lat": 25.4358, "lon": 81.8463},
    {"name": "Ranchi", "lat": 23.3441, "lon": 85.3096},
    {"name": "Haora", "lat": 22.5958, "lon": 88.3240},
    {"name": "Coimbatore", "lat": 11.0168, "lon": 76.9558},
    {"name": "Jabalpur", "lat": 23.1815, "lon": 79.9864},
    {"name": "Gwalior", "lat": 26.2183, "lon": 78.1828},
    {"name": "Vijayawada", "lat": 16.5062, "lon": 80.6480},
    {"name": "Jodhpur", "lat": 26.2389, "lon": 73.0243},
    {"name": "Madurai", "lat": 9.9252, "lon": 78.1198},
    {"name": "Raipur", "lat": 21.2514, "lon": 81.6296},
    {"name": "Kota", "lat": 25.1825, "lon": 75.8391},
    {"name": "Guwahati", "lat": 26.1158, "lon": 91.7086},
    {"name": "Chandigarh", "lat": 30.7333, "lon": 76.7794},
    {"name": "Solapur", "lat": 17.6599, "lon": 75.9064},
    {"name": "Hubli-Dharwad", "lat": 15.3647, "lon": 75.1240},
    {"name": "Bareilly", "lat": 28.3670, "lon": 79.4304},
    {"name": "Moradabad", "lat": 28.8386, "lon": 78.7733},
    {"name": "Mysore", "lat": 12.2958, "lon": 76.6394},
    {"name": "Gurgaon", "lat": 28.4595, "lon": 77.0266},
    {"name": "Aligarh", "lat": 27.8974, "lon": 78.0880},
    {"name": "Jalandhar", "lat": 31.3260, "lon": 75.5762},
    {"name": "Tiruchirappalli", "lat": 10.7905, "lon": 78.7047},
    {"name": "Bhubaneswar", "lat": 20.2961, "lon": 85.8245},
    {"name": "Salem", "lat": 11.6643, "lon": 78.1460},
    {"name": "Mira-Bhayandar", "lat": 19.2952, "lon": 72.8596},
    {"name": "Thiruvananthapuram", "lat": 8.5241, "lon": 76.9366},
    {"name": "Bhiwandi", "lat": 19.2967, "lon": 73.0645},
    {"name": "Saharanpur", "lat": 29.9640, "lon": 77.5460},
    {"name": "Gorakhpur", "lat": 26.7606, "lon": 83.3732},
    {"name": "Guntur", "lat": 16.3067, "lon": 80.4365},
    {"name": "Bikaner", "lat": 28.0229, "lon": 73.3119},
    {"name": "Amravati", "lat": 20.9320, "lon": 77.7523},
    {"name": "Noida", "lat": 28.5355, "lon": 77.3910},
    {"name": "Jamshedpur", "lat": 22.8046, "lon": 86.2029},
    {"name": "Bhilai", "lat": 21.1938, "lon": 81.3509},
    {"name": "Cuttack", "lat": 20.4625, "lon": 85.8828},
    {"name": "Firozabad", "lat": 27.1500, "lon": 78.3964},
    {"name": "Kochi", "lat": 9.9312, "lon": 76.2673},
    {"name": "Bhavnagar", "lat": 21.7645, "lon": 72.1519},
    {"name": "Dehradun", "lat": 30.3165, "lon": 78.0322},
    {"name": "Durgapur", "lat": 23.5204, "lon": 87.3119},
    {"name": "Asansol", "lat": 23.6841, "lon": 86.9859},
    {"name": "Nanded-Waghala", "lat": 19.1383, "lon": 77.3210},
    {"name": "Kolhapur", "lat": 16.7050, "lon": 74.2433},
    {"name": "Ajmer", "lat": 26.4499, "lon": 74.6399},
    {"name": "Gulbarga", "lat": 17.3297, "lon": 76.8343},
    {"name": "Jamnagar", "lat": 22.4707, "lon": 70.0577},
    {"name": "Ujjain", "lat": 23.1793, "lon": 75.7849},
    {"name": "Loni", "lat": 28.7500, "lon": 77.2833},
    {"name": "Siliguri", "lat": 26.7271, "lon": 88.3953},
    {"name": "Jhansi", "lat": 25.4484, "lon": 78.5685},
    {"name": "Ulhasnagar", "lat": 19.2215, "lon": 73.1645},
    {"name": "Nellore", "lat": 14.4426, "lon": 79.9865},
    {"name": "Jammu", "lat": 32.7266, "lon": 74.8570},
    {"name": "Sangli-Miraj-Kupwad", "lat": 16.8524, "lon": 74.5815},
    {"name": "Belgaum", "lat": 15.8497, "lon": 74.4977},
    {"name": "Mangalore", "lat": 12.9141, "lon": 74.8560},
    {"name": "Ambattur", "lat": 13.1143, "lon": 80.1548},
    {"name": "Tirunelveli", "lat": 8.7139, "lon": 77.7567},
    {"name": "Malegaon", "lat": 20.5500, "lon": 74.5333},
    {"name": "Gaya", "lat": 24.7914, "lon": 85.0002},
    {"name": "Jalgaon", "lat": 21.0077, "lon": 75.5626},
    {"name": "Udaipur", "lat": 24.5854, "lon": 73.7125},
    {"name": "Maheshtala", "lat": 22.5152, "lon": 88.2466}
  ]
}
